,City,Lat,Lng,Max Temp,Humidity,Cloudiness,Wind Speed,Country,Date
0,New Norfolk,-42.7826,147.0587,59.72000000000006,64,83,1.0,AU,1648412263
1,Codrington,-38.2667,141.9667,60.98000000000004,87,95,1.64,AU,1648412263
2,Ponta do Sol,32.6667,-17.1,62.06000000000008,80,17,2.63,PT,1648412264
3,Avarua,-21.2078,-159.775,84.25400000000005,79,59,3.6,CK,1648412126
4,Pevek,69.7008,170.3133,-17.35599999999998,100,62,3.04,RU,1648412264
5,Upernavik,72.7868,-56.1549,25.37600000000009,74,99,1.25,GL,1648412264
6,Dakar,14.6937,-17.4441,72.48200000000001,86,42,6.3,SN,1648412063
7,Nikolskoye,59.7035,30.7861,26.798000000000023,79,100,2.79,RU,1648412008
8,Souillac,-20.5167,57.5167,79.17800000000007,83,40,0.51,MU,1648412265
9,Agirish,61.9247,63.0231,24.35,91,100,6.38,RU,1648412265
10,Laguna,38.421,-121.4238,73.77800000000006,50,0,4.12,US,1648412265
11,Ilulissat,69.2167,-51.1,28.418000000000085,46,0,0.0,GL,1648412266
12,High Rock,26.6208,-78.2833,75.21800000000009,46,0,9.13,BS,1648412266
13,Boende,-0.2167,20.8667,70.77200000000003,92,100,0.91,CD,1648412162
14,Busselton,-33.65,115.3333,58.26200000000006,69,0,6.35,AU,1648412267
15,Langxiang,46.95,128.8833,19.058000000000003,98,72,1.49,CN,1648412267
16,Masuguru,-11.3667,38.4167,74.15600000000003,95,14,0.77,TZ,1648412267
17,Shatin,39.8357,45.3019,27.89600000000005,77,41,0.38,AM,1648412268
18,Poum,-20.2333,164.0167,80.06000000000009,76,31,6.4,NC,1648412268
19,Atuona,-9.8,-139.0333,79.28600000000007,77,31,6.98,PF,1648412268
20,Cape Town,-33.9258,18.4232,67.26200000000006,62,56,1.98,ZA,1648412038
21,Puerto Ayora,-0.7393,-90.3518,84.16400000000003,75,92,5.71,EC,1648412269
22,Nantucket,41.2835,-70.0995,48.30800000000001,63,0,10.8,US,1648412245
23,Rikitea,-23.1203,-134.9692,79.10600000000002,70,5,5.41,PF,1648412269
24,Thompson,55.7435,-97.8558,13.333999999999993,65,21,1.34,CA,1648412091
25,Punta Arenas,-53.15,-70.9167,51.908,54,0,11.83,CL,1648412142
26,Mar del Plata,-38.0023,-57.5575,69.81800000000008,57,0,7.6,AR,1648412171
27,Waingapu,-9.6567,120.2641,77.63000000000004,83,43,1.93,ID,1648412270
28,Hambantota,6.1241,81.1185,79.26800000000009,83,23,2.55,LK,1648412271
29,Dunedin,-45.8742,170.5036,55.22000000000006,89,0,2.7,NZ,1648412271
30,Pisco,-13.7,-76.2167,77.05400000000006,65,0,8.23,PE,1648412077
31,East London,-33.0153,27.9116,72.28399999999999,81,94,9.04,ZA,1648412007
32,Leningradskiy,69.3833,178.4167,-11.30799999999995,91,14,1.97,RU,1648412272
33,Ribeira Grande,38.5167,-28.7,61.19600000000005,72,20,4.12,PT,1648412273
34,Kushima,31.4583,131.2333,55.09400000000007,62,100,4.25,JP,1648412273
35,Bilma,18.6853,12.9164,75.83000000000004,8,0,2.88,NE,1648412000
36,Coria,39.9879,-6.5377,57.452000000000076,56,98,6.83,ES,1648412274
37,Mataura,-46.1927,168.8643,49.94600000000005,96,8,0.97,NZ,1648412274
38,Viedma,-40.8135,-62.9967,71.87000000000006,25,0,4.12,AR,1648412274
39,Albany,42.6001,-73.9662,38.030000000000044,65,100,0.89,US,1648411821
40,Barrow,71.2906,-156.7887,-0.38199999999996237,71,20,9.26,US,1648412275
41,Gamba,-2.65,10.0,79.21400000000003,92,43,1.4,GA,1648412275
42,Novikovo,51.1537,37.8879,26.960000000000083,65,95,7.08,RU,1648412275
43,Hithadhoo,-0.6,73.0833,82.14800000000002,65,2,2.53,MV,1648412276
44,Chabahar,25.2919,60.643,78.47600000000008,69,0,4.32,IR,1648412276
45,Castro,-24.7911,-50.0119,76.06400000000004,67,8,1.44,BR,1648412211
46,Ukiah,39.1502,-123.2078,62.438000000000045,69,20,7.72,US,1648412276
47,Vao,-22.6667,167.4833,76.60400000000006,69,36,7.92,NC,1648412277
48,Saskylakh,71.9167,114.0833,-5.781999999999968,99,100,1.76,RU,1648412277
49,Hermanus,-34.4187,19.2345,69.8,67,96,2.42,ZA,1648412277
50,Lompoc,34.6391,-120.4579,69.62000000000006,67,100,7.72,US,1648412032
51,Sagua la Grande,22.8067,-80.0756,79.79000000000002,42,0,6.78,CU,1648412278
52,Plettenberg Bay,-34.0527,23.3716,67.442,65,100,1.66,ZA,1648412196
53,Kruisfontein,-34.0033,24.7314,66.88399999999999,87,100,2.97,ZA,1648412278
54,Jamestown,42.097,-79.2353,22.51400000000003,60,100,10.29,US,1648412279
55,College,64.8569,-147.8028,34.46600000000001,73,20,1.54,US,1648412279
56,Torbay,47.6666,-52.7314,43.28600000000007,92,100,7.72,CA,1648412148
57,Gariadhar,21.5333,71.5833,84.72200000000004,36,0,3.83,IN,1648412280
58,Djebeniana,35.035,10.9081,64.20200000000008,76,27,6.27,TN,1648412281
59,Asău,46.4333,26.4,36.518000000000086,52,18,0.49,RO,1648412281
60,Tripoli,32.8752,13.1875,64.65200000000007,65,100,4.85,LY,1648412281
61,Pacific Grove,36.6177,-121.9166,63.06800000000008,73,40,9.83,US,1648412282
62,Peniche,39.3558,-9.3811,66.29000000000002,70,100,5.06,PT,1648412282
63,Hobart,-42.8794,147.3294,60.26000000000008,78,0,2.06,AU,1648412115
64,Kavieng,-2.5744,150.7967,81.62600000000009,76,83,3.52,PG,1648412283
65,Saint-Philippe,-21.3585,55.7679,77.21600000000001,86,99,4.85,RE,1648412111
66,Cabo San Lucas,22.8909,-109.9124,86.30600000000003,20,40,5.14,MX,1648412283
67,Consuegra,39.4625,-3.608,50.233999999999995,70,100,7.6,ES,1648412284
68,Kununurra,-15.7667,128.7333,75.18200000000002,94,99,0.0,AU,1648412284
69,Coahuayana Viejo,18.7333,-103.6833,91.184,26,19,3.35,MX,1648412284
70,Dikson,73.5069,80.5464,-16.61799999999998,99,15,1.4,RU,1648412285
71,Longyearbyen,78.2186,15.6401,8.438000000000045,66,20,5.66,SJ,1648412285
72,Soyo,-6.1349,12.3689,80.87000000000006,90,100,4.9,AO,1648412286
73,Limbang,4.75,115.0,75.308,95,100,0.74,MY,1648412286
74,Mount Isa,-20.7333,139.5,73.16600000000001,28,0,3.09,AU,1648412101
75,Santa María Rayón,19.1444,-99.5836,72.5,15,27,1.36,MX,1648412286
76,Oranjestad,12.524,-70.027,85.94600000000005,62,20,10.8,AW,1648412287
77,Yellowknife,62.456,-114.3525,13.406000000000027,63,20,2.57,CA,1648412287
78,Sorong,-0.8833,131.25,79.98800000000004,81,100,0.69,ID,1648412288
79,Guerrero Negro,27.9769,-114.0611,71.942,46,100,4.8,MX,1648412288
80,Saldanha,-33.0117,17.9442,63.662000000000056,75,6,1.09,ZA,1648412289
81,Sørland,67.667,12.6934,37.25600000000003,76,100,11.48,NO,1648412255
82,São Filipe,14.8961,-24.4956,70.53800000000004,73,100,5.07,CV,1648412289
83,Lebu,-37.6167,-73.65,60.044000000000075,68,0,5.24,CL,1648412168
84,Suslovo,56.2167,88.1167,6.962000000000057,90,6,2.74,RU,1648412290
85,Port Hardy,50.6996,-127.4199,48.38000000000004,93,100,2.57,CA,1648412290
86,San Quintín,30.4833,-115.95,65.42600000000009,63,49,4.02,MX,1648412290
87,Provideniya,64.3833,-173.3,17.222000000000037,74,99,1.55,RU,1648412291
88,Salamiyah,35.0113,37.0532,43.556000000000026,74,0,2.05,SY,1648412291
89,De Haan,51.272,3.0429,49.98200000000001,84,0,4.63,BE,1648412292
90,Ballina,-28.8667,153.5667,68.18000000000004,99,99,2.38,AU,1648412292
91,Khorramshahr,30.4397,48.1664,60.76400000000003,48,0,2.06,IR,1648412292
92,Ushuaia,-54.8,-68.3,51.458000000000006,50,20,5.66,AR,1648412010
93,Tiksi,71.6872,128.8694,-14.313999999999979,100,99,2.6,RU,1648412293
94,Houma,29.5958,-90.7195,80.99600000000005,60,0,4.92,US,1648412293
95,Tabou,4.423,-7.3528,81.28399999999999,83,98,3.68,CI,1648412294
96,Butaritari,3.0707,172.7902,80.52800000000006,67,100,4.01,KI,1648412294
97,Magistral'nyy,56.1725,107.4458,10.18399999999999,93,100,1.93,RU,1648412294
98,Khandyga,62.6667,135.6,-18.507999999999953,99,87,1.36,RU,1648412295
99,Strezhevoy,60.7333,77.5889,3.5060000000000286,99,71,2.44,RU,1648412236
100,Tuktoyaktuk,69.4541,-133.0374,-11.199999999999946,64,0,3.6,CA,1648412295
101,Tarko-Sale,64.9225,77.785,2.714000000000034,98,62,4.18,RU,1648412296
102,Sandakan,5.8402,118.1179,74.87600000000009,94,20,3.09,MY,1648412296
103,George Town,5.4112,100.3354,80.52800000000006,86,20,2.57,MY,1648412297
104,Cascavel,-24.9558,-53.4553,76.56800000000008,58,0,1.07,BR,1648412103
105,Khatanga,71.9667,102.5,-21.657999999999944,100,98,0.62,RU,1648412297
106,Tura,25.5198,90.2201,71.13200000000002,51,1,1.81,IN,1648412298
107,Bilāra,26.1792,73.7056,79.73600000000008,14,0,3.99,IN,1648412298
108,Kourou,5.1552,-52.6478,84.25400000000005,78,86,5.13,GF,1648412299
109,Iskateley,67.6803,53.1512,7.124000000000013,94,100,7.74,RU,1648412299
110,Pampa,35.5362,-100.9599,71.56400000000004,30,0,4.63,US,1648412220
111,Rzhishchëv,49.9689,31.0463,32.97200000000004,40,81,4.73,UA,1648412300
112,Qasigiannguit,68.8193,-51.1922,28.65200000000008,80,44,2.2,GL,1648412300
113,Vagay,57.9375,69.0217,10.976000000000091,95,94,3.24,RU,1648412300
114,Praia da Vitória,38.7333,-27.0667,61.754000000000055,94,40,4.54,PT,1648412301
115,Abhā,18.2164,42.5053,60.62000000000006,77,0,2.06,SA,1648412301
116,Arraial do Cabo,-22.9661,-42.0278,80.56400000000004,83,40,4.63,BR,1648412142
117,Bluff,-46.6,168.3333,52.98800000000004,90,15,1.78,NZ,1648412302
118,São José da Coroa Grande,-8.8978,-35.1478,79.86200000000005,83,100,3.88,BR,1648412302
119,Hamilton,39.1834,-84.5333,43.214000000000034,45,40,8.23,US,1648412302
120,Bengkulu,-3.8004,102.2655,75.16400000000003,90,67,2.82,ID,1648412303
121,Maceió,-9.6658,-35.7353,81.842,78,75,4.12,BR,1648412289
122,Haines Junction,60.7522,-137.5108,30.14600000000005,51,89,1.54,CA,1648412303
123,Tegul'det,57.3064,88.1667,0.35600000000003007,99,70,1.02,RU,1648412304
124,Severo-Kuril'sk,50.6789,156.125,32.05400000000005,90,72,7.81,RU,1648412304
125,Oksbøl,55.6268,8.2876,42.908,91,96,5.61,DK,1648412304
126,Bredasdorp,-34.5322,20.0403,64.92200000000004,83,54,0.95,ZA,1648412305
127,Portland,45.5234,-122.6762,67.1,71,100,2.06,US,1648412055
128,Arrondissement de Pithiviers,48.1667,2.25,57.812000000000054,61,0,2.25,FR,1648412305
129,Marawi,7.9986,124.2928,67.13600000000007,93,42,0.85,PH,1648412112
130,Sisimiut,66.9395,-53.6735,28.741999999999997,66,14,5.42,GL,1648412306
131,Newtownards,54.5924,-5.6909,51.74600000000005,76,0,0.51,GB,1648412306
132,Fort Nelson,58.8053,-122.7002,24.38600000000007,54,75,1.03,CA,1648412306
133,Saint George,37.1041,-113.5841,83.78600000000007,10,0,3.09,US,1648412307
134,Camacha,33.0833,-16.3333,58.424000000000014,77,20,3.09,PT,1648412307
135,Makkah al Mukarramah,21.4267,39.8261,75.92000000000006,36,0,2.35,SA,1648412093
136,Guangming,45.3333,122.7833,29.372000000000035,39,0,3.87,CN,1648412308
137,Mossamedes,-15.1961,12.1522,72.32000000000006,73,96,6.78,AO,1648412308
138,Tingo María,-9.2895,-76.0088,78.96200000000006,89,99,1.12,PE,1648412171
139,Atar,20.5169,-13.0499,81.17600000000009,12,82,3.44,MR,1648412309
140,Kamenka,51.3223,42.7678,24.188000000000045,83,100,7.9,RU,1648412309
141,Valentín Gómez Farías,28.2167,-106.5833,78.26000000000008,5,100,4.32,MX,1648412309
142,Whitehorse,60.7161,-135.0538,33.02600000000009,55,80,1.34,CA,1648411827
143,Dambulla,7.86,80.6517,73.22000000000006,96,5,1.04,LK,1648412280
144,Airai,-8.9266,125.4092,59.55800000000001,90,97,0.4,TL,1648412310
145,Kumul,42.8,93.45,49.604000000000056,33,100,8.49,CN,1648412311
146,Kieta,-6.2167,155.6333,79.12400000000001,84,100,1.27,PG,1648412311
147,Amapá,1.0,-52.0,74.15600000000003,99,100,1.36,BR,1648412311
148,Mackay,-21.15,149.2,68.684,89,18,2.7,AU,1648412189
149,Luau,-10.7073,22.2247,64.49000000000002,96,61,3.39,AO,1648412312
150,Malanje,-9.5402,16.341,67.64000000000001,89,100,0.54,AO,1648412312
151,San Cristobal,7.7669,-72.225,75.38000000000004,61,100,2.48,VE,1648412165
152,Chui,-33.6971,-53.4616,78.85400000000006,38,0,3.35,UY,1648412313
153,Mogadishu,2.0371,45.3438,81.01400000000004,74,100,7.57,SO,1648412313
154,Carnarvon,-24.8667,113.6333,69.87200000000004,83,40,2.06,AU,1648412314
155,Marsh Harbour,26.5412,-77.0636,72.17600000000009,49,0,8.74,BS,1648412314
156,Salalah,17.0151,54.0924,77.66600000000001,52,6,0.57,OM,1648412073
157,Vaini,-21.2,-175.2,78.96200000000006,94,75,1.54,TO,1648412314
158,Sarh,9.1429,18.3923,86.84600000000005,11,23,2.24,TD,1648412315
159,Lesogorsk,56.0458,99.5136,4.820000000000061,99,67,1.58,RU,1648412315
160,Swan Hill,-35.3378,143.5544,67.19000000000003,51,100,2.21,AU,1648412315
161,Outjo,-20.1167,16.15,69.49400000000007,36,3,1.74,NA,1648412316
162,Grand Baie,-20.0182,57.5802,79.26800000000009,85,0,5.01,MU,1648412107
163,Aguié,13.506,7.7786,78.74600000000005,9,7,5.24,NE,1648412316
164,Verkhniy Tagil,57.3733,59.9556,31.35200000000008,88,100,4.71,RU,1648412316
165,Porto-Novo,6.4965,2.6036,83.53399999999999,77,37,4.59,BJ,1648412019
166,Champerico,14.3,-91.9167,82.94000000000003,61,62,5.27,GT,1648412317
167,Alta Floresta,-9.8756,-56.0861,85.82000000000006,74,40,3.09,BR,1648412317
168,Muisne,0.6,-80.0333,82.50800000000001,69,77,2.95,EC,1648412318
169,Fare,-16.7,-151.0167,81.77000000000007,73,11,5.67,PF,1648412318
170,Clevedon,51.4406,-2.8575,53.42000000000006,88,3,6.17,GB,1648412319
171,São João da Barra,-21.6403,-41.0511,86.09000000000002,85,0,6.84,BR,1648412319
172,Vardø,70.3705,31.1107,15.782000000000018,92,40,4.63,NO,1648412319
173,Sokolo,14.7328,-6.1219,94.56800000000008,20,43,1.98,ML,1648412320
174,Tuatapere,-46.1333,167.6833,52.483999999999995,91,7,1.51,NZ,1648412320
175,Kloulklubed,7.0419,134.2556,82.76000000000008,77,94,9.14,PW,1648412321
176,Mouila,-1.8685,11.0559,74.93000000000004,98,57,1.07,GA,1648412321
177,Tasiilaq,65.6145,-37.6368,28.562000000000058,83,100,5.24,GL,1648412321
178,Arlit,18.7369,7.3853,81.10400000000006,5,6,4.37,NE,1648412029
179,Abnūb,27.2696,31.1511,61.016000000000005,25,0,4.36,EG,1648412322
180,Narsaq,60.9167,-46.05,41.21600000000001,63,100,4.04,GL,1648412322
181,Karratha,-20.7377,116.8463,81.75200000000008,66,100,3.83,AU,1648412322
182,Dingle,10.9995,122.6711,75.38000000000004,92,64,3.24,PH,1648412323
183,Buraidah,26.326,43.975,61.25,24,0,4.15,SA,1648412323
184,Miercurea Sibiului,45.8833,23.8,36.95,47,6,2.51,RO,1648412324
185,Burns Lake,54.2331,-125.7533,36.82400000000001,79,100,1.12,CA,1648412324
186,Darhan,49.4867,105.9228,28.31000000000008,74,100,5.6,MN,1648412324
187,Imeni Zhelyabova,58.9544,36.5956,19.07600000000009,87,42,4.87,RU,1648412325
188,Vila Franca do Campo,37.7167,-25.4333,61.214000000000034,87,17,4.53,PT,1648412325
189,Geraldton,-28.7667,114.6,73.81400000000004,78,100,3.6,AU,1648412325
190,Ntcheu,-14.8203,34.6359,65.642,98,100,1.49,MW,1648412326
191,Assiut,27.181,31.1837,60.98000000000004,24,0,4.23,EG,1648412326
192,Ejea de los Caballeros,42.1263,-1.1372,52.016000000000005,67,0,2.11,ES,1648412326
193,Farafangana,-22.8167,47.8333,77.25200000000008,91,55,2.91,MG,1648412327
194,Qaanaaq,77.484,-69.3632,9.644000000000073,86,100,2.0,GL,1648412117
195,Galveston,29.3669,-94.9669,85.08200000000002,56,0,8.23,US,1648412327
196,Esperance,-33.8667,121.9,62.40200000000008,73,100,5.89,AU,1648412328
197,Buchanan,5.8808,-10.0467,79.89800000000002,86,99,3.28,LR,1648412328
198,Lüderitz,-26.6481,15.1594,66.03800000000004,64,0,2.21,NA,1648412328
199,Hilo,19.7297,-155.09,78.53000000000004,65,0,3.09,US,1648412329
200,La Ronge,55.1001,-105.2842,19.616000000000007,53,100,6.17,CA,1648412329
201,Chunoyar,57.4467,97.3217,-2.8299999999999415,100,100,1.42,RU,1648412329
202,Toguchin,55.2353,84.3858,3.7760000000000886,90,68,2.26,RU,1648412330
203,Roebourne,-20.7833,117.1333,81.266,66,100,4.29,AU,1648412330
204,Inhumas,-16.3578,-49.4961,71.33000000000004,88,73,0.73,BR,1648412331
205,Taoudenni,22.6783,-3.9836,91.02200000000003,18,8,1.94,ML,1648412331
206,Kozhva,65.1073,57.0459,22.49600000000005,95,100,3.74,RU,1648412331
207,Loukhi,66.0764,33.0381,2.3540000000000525,95,7,1.53,RU,1648412332
208,Vestmannaeyjar,63.4427,-20.2734,46.18399999999999,91,100,6.36,IS,1648412332
209,Kaduqli,11.0167,29.7167,82.47200000000004,12,100,4.64,SD,1648412332
210,Anáhuac,27.2333,-100.15,88.55600000000003,15,12,8.6,MX,1648412333
211,Poya,-21.35,165.15,75.36200000000005,83,79,1.79,NC,1648412333
212,Lucapa,-8.4192,20.7447,67.96400000000003,92,100,0.43,AO,1648412333
213,Bar Harbor,44.3876,-68.2039,48.90200000000008,62,20,7.72,US,1648412334
214,Sola,-13.8833,167.55,81.78800000000004,75,97,3.51,VU,1648412334
215,Bethel,41.3712,-73.414,43.57400000000001,59,100,7.2,US,1648412334
216,Tagusao,9.1924,117.8141,79.10600000000002,82,90,1.4,PH,1648412335
217,Half Moon Bay,37.4636,-122.4286,65.91200000000006,68,75,6.17,US,1648412335
218,Krasnosel'kup,65.7,82.4667,-8.031999999999968,100,66,2.58,RU,1648412335
219,San Patricio,28.017,-97.5169,87.89000000000001,34,100,7.47,US,1648412336
220,Abatskiy,56.2875,70.4555,5.954000000000054,97,30,3.17,RU,1648412336
221,Mahébourg,-20.4081,57.7,79.08800000000005,83,40,0.51,MU,1648412337
222,Flinders,-34.5833,150.8552,67.17200000000004,94,100,2.68,AU,1648412337
223,Annau,37.8876,58.516,54.59000000000002,46,0,2.24,TM,1648412117
224,Chokurdakh,70.6333,147.9167,-13.575999999999937,100,87,2.7,RU,1648412338
225,Baykit,61.67,96.37,-0.5079999999999529,99,73,1.85,RU,1648412338
226,Kurumkan,54.3,110.3,7.844000000000072,88,29,2.83,RU,1648412338
227,Arman',59.7,150.1667,2.912000000000056,82,100,4.88,RU,1648412339
228,Saint-Germain-de-Grantham,45.8334,-72.5658,31.910000000000082,81,100,3.13,CA,1648412339
229,Evensk,61.95,159.2333,7.93399999999999,75,90,8.03,RU,1648412340
230,Coyhaique,-45.5752,-72.0662,50.61200000000006,87,100,3.6,CL,1648412341
231,Mukhen,48.1,136.1,22.064000000000032,97,100,1.01,RU,1648412341
232,Khilok,51.3674,110.4676,19.94000000000002,96,100,1.97,RU,1648412249
233,Partanna,37.7278,12.8885,59.54000000000002,70,88,1.0,IT,1648412341
234,Popondetta,-8.7537,148.2534,74.80400000000006,96,100,1.09,PG,1648412342
235,Faanui,-16.4833,-151.75,82.04000000000002,72,21,6.33,PF,1648412342
236,Margate,51.3813,1.3862,47.3,86,2,0.89,GB,1648412042
237,Cidreira,-30.1811,-50.2056,74.67800000000007,65,0,3.12,BR,1648412194
238,Pueblo Nuevo,23.3833,-105.3833,76.13600000000007,12,13,4.24,MX,1648412343
239,Borogontsy,62.6683,131.1683,-1.2099999999999795,99,99,2.59,RU,1648412343
240,Cayenne,4.9333,-52.3333,84.23600000000008,1,75,6.69,GF,1648412198
241,Smithers,54.7804,-127.1743,35.924000000000014,80,40,1.54,CA,1648412205
242,The Valley,18.217,-63.0578,82.81400000000004,76,47,6.27,AI,1648412111
243,Rørvik,64.8621,11.2373,42.78200000000002,81,75,12.86,NO,1648412344
244,Guachetá,5.3843,-73.6862,58.44199999999999,84,100,1.2,CO,1648412344
245,Aklavik,68.2191,-135.0107,-0.9939999999999714,90,89,1.8,CA,1648412110
246,Bambous Virieux,-20.3428,57.7575,79.05200000000008,83,40,0.51,MU,1648412345
247,Pangnirtung,66.1451,-65.7125,14.0,92,20,2.06,CA,1648412345
248,Bandarbeyla,9.4942,50.8122,78.63800000000005,70,5,5.99,SO,1648412345
249,Kinsale,51.7075,-8.5306,48.23600000000007,81,20,3.09,IE,1648412346
250,Mata,40.683,-7.4592,55.59800000000003,76,95,1.21,PT,1648412346
251,Nālūt,30.3333,10.85,70.89800000000002,19,18,2.67,LY,1648412282
252,Goderich,43.7501,-81.7165,21.90200000000008,58,100,11.83,CA,1648412346
253,Mlonggo,-6.5333,110.7,78.98000000000005,84,55,1.9,ID,1648412347
254,Hong Kong,22.2855,114.1577,66.25400000000005,88,100,2.24,HK,1648412105
255,Puerto Escondido,15.85,-97.0667,85.02800000000006,74,100,4.12,MX,1648412347
256,Sindor,62.8629,51.8905,21.2,99,100,0.16,RU,1648412348
257,Thayetmyo,19.3167,95.1833,81.68000000000004,65,34,1.0,MM,1648412348
258,Elko,41.0002,-115.5012,68.01800000000009,22,100,3.58,US,1648412090
259,Mezen',65.8522,44.24,8.06000000000008,92,96,2.9,RU,1648412348
260,Yabassi,4.457,9.9682,79.50200000000008,85,14,0.7,CM,1648412349
261,Naze,28.3667,129.4833,56.31800000000008,62,98,6.05,JP,1648412349
262,Katsuura,35.1333,140.3,55.274000000000015,83,70,5.94,JP,1648412349
263,Nigrán,42.1415,-8.8066,61.57400000000001,60,0,2.06,ES,1648412350
264,Fereydūnkenār,36.6864,52.5225,50.21600000000001,87,20,0.0,IR,1648412350
265,Vangaindrano,-23.35,47.6,74.76800000000009,94,94,1.15,MG,1648412091
266,Qaqortoq,60.7167,-46.0333,34.772000000000034,71,100,2.89,GL,1648412351
267,Rāmkola,26.9042,83.8411,73.83200000000002,16,0,2.51,IN,1648412351
268,Deep River,46.1001,-77.4995,18.428000000000065,68,100,5.65,CA,1648412148
269,Preobrazheniye,42.9019,133.9064,33.38600000000007,70,4,5.22,RU,1648412351
270,Padang,-0.9492,100.3543,75.02000000000007,67,61,2.17,ID,1648412103
271,Cockburn Town,21.4612,-71.1419,78.76400000000004,65,40,6.17,TC,1648412352
272,Takoradze,4.8845,-1.7554,81.59000000000002,83,55,3.42,GH,1648412352
273,Acajutla,13.5928,-89.8275,87.0260000000001,49,69,4.47,SV,1648412353
274,Srednekolymsk,67.45,153.6833,-15.375999999999934,100,62,1.33,RU,1648412353
275,Faya,18.3851,42.4509,60.908,46,0,3.07,SA,1648412353
276,Saint Paul Harbor,57.79,-152.4072,33.314000000000036,100,100,12.86,US,1648412354
277,Chetwayi,10.5333,76.05,81.62600000000009,85,11,2.0,IN,1648412354
278,Nānākuli,21.3906,-158.1547,78.71000000000008,73,100,3.6,US,1648412355
279,Marovoay,-16.1,46.6333,77.684,92,100,1.24,MG,1648412355
280,Rawson,-43.3002,-65.1023,70.82600000000009,22,0,7.22,AR,1648412355
281,Port Alfred,-33.5906,26.891,66.18200000000002,90,98,1.34,ZA,1648412356
282,Yar-Sale,66.8333,70.8333,14.233999999999991,94,100,6.38,RU,1648412356
283,Islamkot,24.6997,70.177,77.9,24,5,5.28,PK,1648412356
284,Christchurch,-43.5333,172.6333,58.40600000000003,86,40,1.54,NZ,1648412189
285,Krasne,49.9145,24.6134,35.492,49,34,2.15,UA,1648412357
286,Yangi Marg`ilon,40.4272,71.7189,47.12000000000006,61,6,3.09,UZ,1648412357
287,Darnah,32.767,22.6367,60.36800000000009,58,92,4.8,LY,1648412358
288,Olafsvik,64.8945,-23.7142,32.774000000000015,70,100,10.41,IS,1648412358
289,Nguruka,-5.1092,31.0419,68.73800000000004,87,99,1.65,TZ,1648412358
290,Mil'kovo,54.7167,158.6167,16.82600000000009,94,100,5.32,RU,1648412359
291,Inhambane,-23.865,35.3833,74.60600000000002,83,0,3.32,MZ,1648412359
292,Kandrian,-6.2167,149.55,77.14400000000008,83,100,2.78,PG,1648412359
293,Kaduy,59.2,37.15,18.212000000000057,85,68,4.6,RU,1648412360
294,Korla,41.7597,86.1469,51.58399999999999,27,100,5.45,CN,1648412360
295,Lavrentiya,65.5833,-171.0,10.148000000000025,82,99,1.95,RU,1648412361
296,Jizan,17.3333,42.6667,79.73600000000008,73,0,1.35,SA,1648412361
297,Tual,-5.6667,132.75,80.43800000000005,79,100,6.09,ID,1648412361
298,Waipawa,-41.4122,175.5153,54.69800000000002,88,98,2.95,NZ,1648412362
299,Linköping,58.4109,15.6216,48.57800000000007,57,0,6.17,SE,1648412362
300,Klaksvík,62.2266,-6.589,47.31800000000008,90,100,6.35,FO,1648412362
301,Nanortalik,60.1432,-45.2371,31.622000000000035,78,100,1.26,GL,1648412363
302,Omboué,-1.5746,9.2618,79.7,92,55,4.4,GA,1648412363
303,Grindavik,63.8424,-22.4338,39.668000000000085,93,100,4.63,IS,1648412364
304,Ketchikan,55.3422,-131.6461,46.86800000000009,66,20,5.14,US,1648412302
305,Kuusamo,65.9667,29.1833,-2.16399999999998,78,0,0.51,FI,1648412364
306,Ancud,-41.8697,-73.8203,54.23000000000004,75,63,6.63,CL,1648412204
307,Fraga,41.5229,0.3489,58.02800000000006,56,4,1.67,ES,1648412335
308,Narok,-1.0783,35.8601,60.674000000000014,87,99,1.08,KE,1648412365
309,Chifeng,42.2683,118.9636,33.728000000000065,31,0,2.71,CN,1648412138
310,Nyurba,63.2842,118.3319,-5.241999999999948,100,100,1.3,RU,1648412365
311,Divnomorskoye,44.5011,38.1353,38.55200000000008,71,68,5.24,RU,1648412365
312,Mehamn,71.0357,27.8492,22.910000000000082,86,40,3.6,NO,1648412366
313,Esim,4.8699,-2.2405,81.158,84,55,2.49,GH,1648412083
314,Nemuro,43.3236,145.575,34.52000000000006,71,49,8.61,JP,1648412366
315,Najrān,17.4924,44.1277,65.04800000000003,24,0,1.81,SA,1648412366
316,Vostok,46.4856,135.8833,21.722000000000037,97,100,2.4,RU,1648412367
317,Nandikotkūr,15.8667,78.2667,85.60400000000006,52,15,3.38,IN,1648412367
318,Casas Grandes,30.3667,-107.95,79.44800000000002,6,100,1.62,MX,1648412367
319,Estrela,-28.0611,-50.9383,71.11400000000003,60,0,1.76,BR,1648412368
320,Great Yarmouth,52.6083,1.7305,43.44800000000002,91,1,3.53,GB,1648412368
321,Dalby,-27.1833,151.2667,60.98000000000004,98,100,0.45,AU,1648412368
322,Deniliquin,-35.5333,144.9667,65.24600000000005,63,77,1.6,AU,1648412369
323,Shar,49.5886,81.0453,33.26000000000008,88,100,7.41,KZ,1648412369
324,Phan Thiet,10.9333,108.1,76.92800000000007,78,100,1.36,VN,1648412369
325,Torphins,57.1056,-2.624,46.418000000000085,80,20,0.18,GB,1648412370
326,Saint-Joseph,-21.3667,55.6167,76.208,85,91,4.25,RE,1648412370
327,Auki,-8.7676,160.7034,77.91800000000009,87,100,0.47,SB,1648412370
328,Sechelt,49.4664,-123.7694,55.52600000000009,86,100,2.23,CA,1648412371
329,Ankazoabo,-22.2833,44.5167,73.09400000000008,86,53,2.12,MG,1648412371
330,Curup,-3.4667,102.5333,63.733999999999995,95,73,0.98,ID,1648412371
331,Miyang,24.4042,103.4428,51.08000000000004,98,41,0.61,CN,1648412372
332,Vanimo,-2.6741,141.3028,77.07200000000003,84,91,2.4,PG,1648412102
333,Knysna,-34.0363,23.0471,68.18000000000004,63,100,1.92,ZA,1648412372
334,Egvekinot,66.3167,-179.1667,-2.9379999999999455,90,10,1.79,RU,1648412092
335,Japura,-0.3167,102.35,73.83200000000002,98,13,0.55,ID,1648412373
336,Kaitangata,-46.2817,169.8464,51.188000000000045,93,9,0.92,NZ,1648412373
337,Aldan,58.6031,125.3894,12.991999999999997,92,100,3.04,RU,1648412373
338,Vrontoú,40.1922,22.4328,57.992,64,40,1.88,GR,1648412374
339,Pangai,-19.8,-174.35,82.50800000000001,69,75,2.57,TO,1648412374
340,Mobile,30.7835,-88.2,81.75200000000008,31,0,2.57,US,1648412375
341,Virginia Beach,36.8529,-75.978,55.45400000000005,37,75,7.72,US,1648412154
342,Catalina,32.5056,-110.9211,87.42200000000004,7,76,3.58,US,1648412375
343,Katherine,-14.4667,132.2667,75.52400000000002,83,96,0.51,AU,1648412376
344,Sulangan,11.1373,123.7228,80.22200000000004,82,75,4.77,PH,1648412376
345,Paphos,34.7667,32.4167,49.78399999999999,50,0,4.12,CY,1648412377
346,Zhangye,38.9342,100.4517,48.84800000000003,17,95,3.48,CN,1648412377
347,Lagoa,39.05,-27.9833,59.0,84,100,5.01,PT,1648412377
348,Lukovetskiy,64.2956,41.9211,11.75,91,13,2.81,RU,1648412378
349,Épernay,49.05,3.95,58.280000000000044,69,0,1.27,FR,1648412378
350,Verkhniy Baskunchak,48.2256,46.7217,32.63000000000004,93,92,6.25,RU,1648412356
351,Villazón,-22.0866,-65.5942,66.63200000000002,16,0,3.7,BO,1648412379
352,Yamethin,20.4333,96.15,79.84400000000008,55,66,0.9,MM,1648412379
353,Zhezkazgan,47.8043,67.7144,20.048000000000023,96,21,1.98,KZ,1648412379
354,Malanville,11.8685,3.3899,89.69000000000003,10,11,4.45,BJ,1648412380
355,Carlsbad,33.1581,-117.3506,79.08800000000005,66,0,4.63,US,1648412253
356,Quelimane,-17.8786,36.8883,80.54600000000005,83,40,2.06,MZ,1648412380
357,Northam,51.0333,-4.2167,51.62000000000006,80,0,3.27,GB,1648412380
358,Winnemucca,40.973,-117.7357,66.25400000000005,26,0,2.06,US,1648412381
359,Altamont,42.2068,-121.7372,61.39400000000008,36,100,4.63,US,1648412381
360,Isangel,-19.55,169.2667,78.566,82,46,3.18,VU,1648412381
361,Clyde River,70.4692,-68.5914,-1.9659999999999584,78,100,3.6,CA,1648412382
362,Oeiras do Pará,-2.0031,-49.8544,80.942,92,100,1.8,BR,1648412382
363,Sechura,-5.5569,-80.8222,82.09400000000008,56,100,6.55,PE,1648412382
364,Petropavlovsk-Kamchatskiy,53.0452,158.6483,28.994000000000074,100,100,3.0,RU,1648412383
365,Hualmay,-11.0964,-77.6139,74.84000000000002,73,94,5.02,PE,1648412329
366,Ciudad Bolivar,8.1222,-63.5497,97.05200000000008,29,61,5.24,VE,1648412383
367,Richards Bay,-28.783,32.0377,72.91400000000003,82,89,1.89,ZA,1648412384
368,Vytegra,61.0064,36.4481,17.456000000000028,91,14,3.53,RU,1648412354
369,Bequimão,-2.4489,-44.7825,80.90600000000003,83,100,2.14,BR,1648412384
370,Dandong,40.1292,124.3947,35.87000000000006,40,0,0.58,CN,1648412335
371,Beira,-19.8436,34.8389,76.53200000000001,83,99,3.53,MZ,1648412385
372,Riviere-au-Renard,48.9957,-64.3971,34.088000000000044,97,100,6.58,CA,1648412385
373,Savé,8.0425,2.486,91.958,36,99,4.09,BJ,1648412386
374,Cherskiy,68.75,161.3,-0.8499999999999517,98,100,3.14,RU,1648412386
375,Nahariya,33.0059,35.0941,54.95,73,0,1.61,IL,1648412313
376,San Juan Pueblo,15.5833,-87.2333,75.95600000000003,89,100,0.18,HN,1648412387
377,Diego de Almagro,-26.3667,-70.05,82.63399999999999,19,0,6.14,CL,1648412387
378,Kenora,49.8167,-94.4337,14.972000000000037,34,0,4.02,CA,1648412387
379,Nur-Sultan,51.1801,71.446,31.946000000000048,100,100,5.0,KZ,1648412386
380,Mogzon,51.7435,111.9606,14.81000000000008,92,94,1.55,RU,1648412388
381,Kholm-Zhirkovskiy,55.5189,33.4731,20.912000000000056,69,99,4.62,RU,1648412388
382,Granados,14.9152,-90.5216,82.63399999999999,32,82,2.36,GT,1648412388
383,St. George's,12.0564,-61.7485,80.22200000000004,70,51,6.55,GD,1648412389
384,Maturin,9.75,-63.1767,85.316,54,94,3.96,VE,1648412389
385,Bathsheba,13.2167,-59.5167,83.01200000000006,61,20,7.2,BB,1648412389
386,Bundaberg,-24.85,152.35,70.08800000000005,99,76,3.09,AU,1648412260
387,Palmas,-10.2128,-48.3603,76.87400000000001,94,75,1.54,BR,1648412390
388,Otradnoye,59.7775,30.8181,26.960000000000083,78,100,2.74,RU,1648412390
389,Rodrigues Alves,-7.738,-72.6509,75.39800000000002,95,86,0.55,BR,1648412390
390,Malmyzh,56.5205,50.6818,25.358000000000004,96,80,3.91,RU,1648412391
391,Alofi,-19.0595,-169.9187,80.49199999999999,83,75,4.63,NU,1648412391
392,Bridlington,54.0831,-0.1919,47.13800000000005,97,8,2.24,GB,1648412391
393,Avanigadda,16.0215,80.9181,80.56400000000004,84,12,3.45,IN,1648412392
394,Sfântu Gheorghe,45.8667,25.7833,42.81800000000008,55,3,1.06,RO,1648412392
395,Nouadhibou,20.931,-17.0347,66.18200000000002,88,100,3.6,MR,1648412337
396,Feira de Santana,-12.2667,-38.9667,83.174,61,20,5.11,BR,1648412392
397,Datong,40.0936,113.2914,35.27600000000009,37,0,1.66,CN,1648412393
398,Hobyo,5.3505,48.5268,80.816,62,100,6.44,SO,1648412393
399,Buala,-8.145,159.5921,79.32200000000003,83,100,1.34,SB,1648412185
400,Grand-Lahou,5.1367,-5.0242,80.85200000000007,83,12,4.09,CI,1648412393
401,Port Elizabeth,-33.918,25.5701,69.09800000000003,95,0,3.6,ZA,1648412277
402,Kahului,20.8947,-156.47,82.41800000000009,39,20,7.2,US,1648412373
403,Bouca,6.5105,18.2733,79.55600000000003,19,100,1.21,CF,1648412394
404,Terre Haute,39.4667,-87.4139,42.044000000000075,48,0,6.17,US,1648412138
405,Cairns,-16.9167,145.7667,73.34600000000005,94,100,0.51,AU,1648412395
406,Bayamo,20.3792,-76.6433,79.71800000000009,53,100,5.18,CU,1648412395
407,Fairbanks,64.8378,-147.7164,34.483999999999995,72,0,1.54,US,1648412395
408,Lata,40.1629,-8.3327,62.07800000000007,64,100,3.41,PT,1648412396
409,Kawambwa,-9.7915,29.0791,64.59800000000003,94,90,1.35,ZM,1648412396
410,Yazman,29.1212,71.7446,83.78600000000007,9,0,2.58,PK,1648412396
411,Acarí,-15.4311,-74.6158,81.23000000000005,55,98,4.41,PE,1648412397
412,La Libertad,-2.2333,-80.9,83.858,79,75,4.12,EC,1648412397
413,Puerto Madryn,-42.7692,-65.0385,72.28399999999999,20,0,5.35,AR,1648412293
414,Albox,37.3886,-2.1495,55.32800000000007,91,76,1.77,ES,1648412110
415,Romano di Lombardia,45.5246,9.7484,60.998000000000026,45,0,2.57,IT,1648412398
416,Tyul'gan,52.3405,56.166,32.63000000000004,98,100,9.12,RU,1648412398
417,Catherinas Lust,6.4,-57.6,80.88800000000005,70,95,5.18,GY,1648412398
418,Krivodol,43.3744,23.4844,53.72600000000009,62,25,1.32,BG,1648412399
419,Karasburg,-28.0167,18.75,84.16400000000003,25,38,2.26,NA,1648412399
420,Vale,41.6156,42.8722,17.54600000000005,91,58,2.35,GE,1648412401
421,Jacareacanga,-6.2222,-57.7528,82.34600000000005,89,98,0.47,BR,1648412401
422,Iqaluit,63.7506,-68.5145,20.696000000000048,92,100,1.03,CA,1648412402
423,Ust'-Barguzin,53.45,108.9833,9.104000000000052,95,73,1.27,RU,1648412403
424,Colares,38.7992,-9.4469,67.33399999999999,59,20,2.06,PT,1648412404
425,Novy Urengoy,66.0833,76.6333,4.28000000000004,100,100,3.75,RU,1648412405
426,Aktau,43.65,51.2,41.57600000000009,93,89,3.28,KZ,1648412406
427,Opuwo,-18.0607,13.84,71.18600000000006,42,4,1.5,NA,1648412407
428,Kharan,28.5833,65.4167,77.09000000000002,11,0,2.71,PK,1648412407
429,Aksu,41.1231,80.2644,52.483999999999995,44,80,1.91,CN,1648412408
430,Yumen,40.2833,97.2,44.69000000000002,20,66,2.31,CN,1648412408
431,Athol,42.5959,-72.2268,44.36600000000001,53,100,6.69,US,1648412365
432,Gympie,-26.1898,152.665,67.17200000000004,99,85,1.37,AU,1648412409
433,Wilmington,34.2257,-77.9447,64.99400000000007,25,0,9.26,US,1648412315
434,Akure,7.2526,5.1931,81.12200000000004,71,1,2.17,NG,1648412410
435,Hofn,64.2539,-15.2082,33.62000000000006,75,100,5.17,IS,1648412410
436,Puerto Carreño,6.189,-67.4859,94.92800000000007,40,100,6.23,CO,1648412272
437,Uzhur,55.3036,89.8339,1.8500000000000014,96,12,1.28,RU,1648412411
438,Marondera,-18.1853,31.5519,60.71000000000008,98,100,2.66,ZW,1648412351
439,Mareeba,-17.0,145.4333,68.72000000000006,97,96,1.38,AU,1648412412
440,Norman Wells,65.282,-126.8329,10.238000000000046,87,100,1.05,CA,1648412412
441,Ust'-Ilimsk,58.0006,102.6619,12.182000000000016,95,100,3.71,RU,1648412413
442,Ongandjera,-17.8833,15.0667,79.12400000000001,26,9,1.99,NA,1648412413
443,Bučovice,49.149,17.0019,50.14400000000008,53,0,1.07,CZ,1648412413
444,Bonavista,48.6499,-53.1147,31.783999999999992,95,100,7.28,CA,1648412414
445,Mashhad,36.297,59.6062,48.34400000000007,61,0,2.06,IR,1648412225
446,Morehead,37.2711,-87.1764,48.992,40,0,3.09,US,1648412414
447,Taos,36.4072,-105.5731,71.99600000000005,11,0,8.23,US,1648412415
448,Misantla,19.9333,-96.8333,80.29400000000007,40,3,3.13,MX,1648412416
449,Jhawarian,32.3614,72.6228,75.21800000000009,14,0,2.78,PK,1648412416
450,Yulara,-25.2406,130.9889,66.03800000000004,24,100,4.12,AU,1648412417
451,Rio Grande,-32.035,-52.0986,84.308,50,2,1.94,BR,1648412334
452,Chepo,9.1667,-79.1,88.77200000000003,60,47,6.36,PA,1648412417
453,Nara,34.6851,135.8049,52.50200000000008,50,77,5.15,JP,1648412418
454,Soc Trang,9.6033,105.98,80.36600000000001,76,95,0.79,VN,1648412418
455,Carballo,43.213,-8.691,62.024000000000015,78,100,0.75,ES,1648412256
456,Chimbote,-9.0853,-78.5783,75.39800000000002,68,100,4.71,PE,1648412418
457,Marshall,34.3834,-86.3333,59.45,31,0,6.69,US,1648412334
458,Alyangula,-13.8483,136.4192,80.51000000000008,78,89,2.09,AU,1648412419
459,Bhandāra,21.1667,79.65,82.31000000000009,13,61,0.98,IN,1648412419
460,Talcahuano,-36.7167,-73.1167,62.27600000000009,72,0,6.17,CL,1648412127
461,Caravelas,-17.7125,-39.2481,80.85200000000007,71,0,3.16,BR,1648412420
462,Ciudad Guayana,8.3533,-62.6528,89.36600000000001,48,93,5.76,VE,1648412420
463,Avera,33.194,-82.5271,69.31400000000004,28,4,8.42,US,1648412421
464,Åmot,59.5714,7.9877,30.704000000000054,93,100,2.49,NO,1648412235
465,Ondjiva,-17.0667,15.7333,72.55400000000006,37,12,2.15,AO,1648412421
466,Meulaboh,4.1363,96.1285,77.43200000000002,85,95,1.6,ID,1648412422
467,Florø,61.5996,5.0328,46.958000000000006,93,75,6.69,NO,1648412422
468,Tonj,7.2737,28.6822,86.72000000000006,12,97,1.05,SS,1648412423
469,Kamaishi,39.2667,141.8833,41.82800000000007,81,8,5.98,JP,1648412423
470,Kulhudhuffushi,6.6221,73.07,82.65200000000007,71,37,3.19,MV,1648412424
471,Kailua,21.4022,-157.7394,78.74600000000005,72,25,1.79,US,1648412424
472,Santiago,-33.4569,-70.6483,85.28000000000004,25,0,4.63,CL,1648412328
473,Kavaratti,10.5669,72.642,82.72400000000002,72,1,3.24,IN,1648412425
474,Nogales,31.3086,-110.9422,83.76800000000009,5,0,6.17,MX,1648412425
475,Tooele,40.5308,-112.2983,75.84800000000003,20,0,9.77,US,1648412425
476,Samarai,-10.6167,150.6667,81.17600000000009,79,100,2.06,PG,1648412426
477,Newport,51.5877,-2.9984,53.51000000000008,81,19,4.29,GB,1648412148
478,Emerald,-23.5333,148.1667,62.34800000000003,89,3,1.87,AU,1648412426
479,Broome,42.2506,-75.833,30.02000000000006,75,100,8.23,US,1648412427
480,Merauke,-8.4667,140.3333,78.33200000000002,89,100,5.17,ID,1648412427
481,Turukhansk,65.8167,87.9833,-12.819999999999958,100,100,2.02,RU,1648412427
482,Iberia,29.9502,-91.7507,81.05,57,0,6.17,US,1648412428
483,Thinadhoo,0.5333,72.9333,82.14800000000002,64,1,2.95,MV,1648412428
484,Mandera,3.9366,41.867,90.17600000000009,22,35,5.01,KE,1648412428
485,Shache,38.4167,77.2406,54.806000000000026,31,20,3.07,CN,1648412330
486,Buta,2.7858,24.73,81.62600000000009,51,100,0.69,CD,1648412429
487,Aligoodarz,33.4006,49.6949,36.842,47,0,2.66,IR,1648412429
488,Constitución,-35.3333,-72.4167,65.01200000000006,64,67,7.53,CL,1648412430
489,Ratnagiri,16.9833,73.3,77.64800000000002,82,5,2.44,IN,1648412431
490,Libreville,0.3925,9.4537,80.96000000000008,84,70,3.01,GA,1648412426
491,Murgab,37.4966,61.9714,49.87400000000001,62,0,3.09,TM,1648412431
492,Lorengau,-2.0226,147.2712,80.47400000000002,78,97,2.69,PG,1648412431
493,Bajil,15.0584,43.2851,79.30400000000006,67,20,1.23,YE,1648412432
494,Gladstone,-23.85,151.25,69.78200000000001,94,8,1.54,AU,1648412432
495,Kudahuvadhoo,2.6708,72.8944,82.14800000000002,68,33,3.38,MV,1648412432
496,Halifax,44.6453,-63.5724,44.52800000000006,92,96,3.09,CA,1648412275
497,Batagay-Alyta,67.8006,130.4114,-13.449999999999946,89,30,2.83,RU,1648412433
498,Ishigaki,24.3448,124.1572,66.32600000000009,100,75,7.72,JP,1648412433
499,Deyang,31.1302,104.382,52.98800000000004,81,33,0.81,CN,1648412433
500,Sindou,10.6667,-5.1667,90.68000000000004,32,9,2.13,BF,1648412434
501,Anadyr,64.75,177.4833,-1.6959999999999482,84,75,1.0,RU,1648412434
502,Burnie,-41.0667,145.9167,60.944000000000074,96,100,3.34,AU,1648412435
503,Edd,13.9297,41.6925,77.9,73,5,1.57,ER,1648412435
504,Igarka,67.4667,86.5833,-11.793999999999969,100,87,1.64,RU,1648412435
505,Ihosy,-22.4,46.1167,71.90600000000003,83,74,1.49,MG,1648412435
506,Kholbon,51.8833,116.25,20.714000000000034,75,1,1.93,RU,1648412436
507,Bayangol,50.6977,103.4656,9.680000000000042,96,100,1.85,RU,1648412436
508,Pinerolo,44.8833,7.35,57.254000000000055,34,57,3.13,IT,1648412436
509,Skjervøy,70.0311,20.9714,21.2,71,95,12.0,NO,1648412437
510,Lubao,14.9167,120.55,75.27200000000003,81,31,2.11,PH,1648412437
511,Morondava,-20.2833,44.2833,80.97800000000007,80,17,3.59,MG,1648412437
512,Show Low,34.2542,-110.0298,70.61000000000008,10,0,8.23,US,1648412438
513,Mersing,2.4312,103.8405,75.11000000000008,94,80,2.57,MY,1648412438
514,Byron Bay,-28.65,153.6167,67.94600000000005,91,98,2.03,AU,1648412375
515,Angoche,-16.2325,39.9086,78.458,76,100,3.14,MZ,1648412438
516,Wanaka,-44.7,169.15,56.96600000000001,66,0,0.83,NZ,1648412439
517,Teknāf,20.8624,92.3058,77.03600000000007,89,14,0.98,BD,1648412439
518,Sistranda,63.7256,8.834,42.76400000000003,87,100,19.1,NO,1648412440
519,Kuytun,54.3419,101.5036,1.0760000000000396,97,20,2.66,RU,1648412440
520,Jodhpur,26.2867,73.03,81.46400000000003,16,0,3.87,IN,1648412440
521,Kokoda,-8.8785,147.7407,73.86800000000008,93,100,1.02,PG,1648412441
522,Saint-Augustin,51.226,-58.6502,32.846000000000046,97,100,9.09,CA,1648412333
523,Tres Arroyos,-38.3739,-60.2798,70.77200000000003,41,0,4.31,AR,1648412441
524,Dudinka,69.4058,86.1778,4.6040000000000525,97,96,2.29,RU,1648412441
525,Toppenish,46.3774,-120.3087,71.34800000000003,41,100,0.34,US,1648412442
526,Sitka,57.0531,-135.33,42.69199999999999,70,40,4.12,US,1648412442
527,Sakakah,29.9697,40.2064,53.168000000000085,16,0,2.93,SA,1648412443
528,Malayal,7.208,121.942,78.27800000000006,83,61,1.95,PH,1648412443
529,Okha,53.5739,142.9478,13.172000000000036,88,100,9.35,RU,1648412444
530,Marabu,4.4148,114.0089,71.74400000000007,94,40,1.54,MY,1648412252
531,Cabedelo,-6.9811,-34.8339,81.266,80,88,5.35,BR,1648412444
532,North Platte,41.1239,-100.7654,53.492,26,0,6.69,US,1648412445
533,Taitung City,22.7583,121.1444,69.54800000000003,88,92,4.93,TW,1648412390
534,Zaysan,47.4667,84.8667,37.07600000000009,80,97,3.34,KZ,1648412445
535,Te Anau,-45.4167,167.7167,52.952000000000076,87,11,0.45,NZ,1648412446
536,Poltavka,54.3663,71.7632,3.7580000000000027,100,76,1.82,RU,1648412446
537,Gardez,33.5974,69.2259,51.65600000000003,35,0,2.26,AF,1648412446
538,Chik,54.9928,82.4311,15.548000000000023,53,0,3.0,RU,1648412447
539,Yinchuan,38.4681,106.2731,44.74400000000007,29,4,1.02,CN,1648412447
540,Pullman,46.7313,-117.1796,66.90200000000007,38,0,3.09,US,1648412431
541,San Carlos del Zulia,9.0,-71.9135,89.76200000000006,57,99,2.42,VE,1648412448
542,Seoul,37.5683,126.9778,35.041999999999994,80,0,1.54,KR,1648412155
543,Ardakān,32.31,54.0175,59.46800000000009,12,0,4.3,IR,1648412448
544,Deputatsky,69.3,139.9,-13.881999999999962,90,39,2.35,RU,1648412448
545,Pāsighāt,28.0667,95.3333,68.64800000000002,68,4,1.77,IN,1648412217
546,Belyy Yar,53.6039,91.3903,13.891999999999996,67,0,2.0,RU,1648412449
547,Gorom-Gorom,14.4439,-0.2361,89.52800000000006,9,4,4.81,BF,1648412449
548,Shenzhen,22.5455,114.0683,66.14600000000004,97,100,2.77,CN,1648412172
549,Sur,22.5667,59.5289,79.88000000000004,54,0,2.49,OM,1648412450
550,Mayumba,-3.432,10.6554,80.11400000000003,91,57,3.28,GA,1648412450
551,Santa Cruz de La Palma,28.6835,-17.7642,64.54400000000007,63,75,3.09,ES,1648412451
552,Kananga,-5.8958,22.4178,75.50600000000003,71,88,1.15,CD,1648412451
553,Tezu,27.9167,96.1667,67.56800000000008,60,5,2.01,IN,1648412451
554,Jalu,29.0331,21.5482,64.86800000000008,16,0,4.51,LY,1648412452
555,Lokosovo,61.1333,74.8167,13.172000000000036,95,100,3.28,RU,1648412452
556,Kiryat Gat,31.61,34.7642,56.08399999999999,100,0,2.04,IL,1648412452
557,Aconibe,1.2968,10.9369,70.30400000000006,94,47,1.19,GQ,1648412453
558,Doha,25.2867,51.5333,66.18200000000002,45,0,8.75,QA,1648412432
559,Cartagena,10.3997,-75.5144,87.42200000000004,66,40,9.26,CO,1648412404
560,Vanavara,60.34,102.2797,10.454000000000054,94,100,3.83,RU,1648412453
561,Tabasco,18.0,-92.6667,81.06800000000008,50,75,4.63,MX,1648412453
562,Vilhena,-12.7406,-60.1458,73.61600000000001,94,75,4.63,BR,1648412440
563,Tall Kayf,37.0833,41.0667,43.141999999999996,78,0,3.22,TR,1648412454
564,Dickinson,29.4608,-95.0513,86.16200000000006,50,0,6.69,US,1648412454
565,Itarema,-2.9248,-39.9167,80.02400000000002,84,100,4.51,BR,1648412455
566,Praia,14.9215,-23.5087,70.34000000000002,68,75,5.66,CV,1648412455
567,Zhigansk,66.7697,123.3711,-6.015999999999956,100,95,0.7,RU,1648412455
568,Pujali,22.4653,88.1517,82.34600000000005,92,35,4.26,IN,1648412455
569,Kingman,35.1894,-114.053,82.65200000000007,8,0,9.77,US,1648411873
570,Machhlīshahr,25.6833,82.4167,76.28000000000004,10,0,0.96,IN,1648412456
571,Pākāla,13.4667,79.1167,75.23600000000008,85,8,1.63,IN,1648412456
572,Ushtobe,45.2514,77.9838,41.14400000000008,64,100,4.17,KZ,1648412456
573,Arrondissement de Poitiers,46.5833,0.3333,63.01400000000003,44,0,2.06,FR,1648412457
574,Muros,42.7762,-9.0603,61.088000000000044,70,100,1.15,ES,1648412457
575,Shurugwi,-19.6702,30.0059,60.314000000000036,96,100,3.39,ZW,1648412351
576,Alim,9.5649,122.4876,79.08800000000005,77,95,2.86,PH,1648412458
